{
    "type": "FeatureCollection",
    "features": [
      {
        "type": "Feature",
        "properties": {
          "nombre": "Centro Comercial La Isla"
        },
        "geometry": {
          "type": "Point",
          "coordinates": [-16.42673, -71.53389]
        }
      },
      {
        "type": "Feature",
        "properties": {
          "nombre": "Óvalo del Avelino"
        },
        "geometry": {
          "type": "Point",
          "coordinates": [-16.42573, -71.53304]
        }
      },
      {
        "type": "Feature",
        "properties": {
          "nombre": "La Pampilla"
        },
        "geometry": {
          "type": "Point",
          "coordinates": [-16.41675, -71.53292]
        }
      },
      {
        "type": "Feature",
        "properties": {
          "nombre": "Hospital General"
        },
        "geometry": {
          "type": "Point",
          "coordinates": [-16.41603, -71.53355]
        }
      },
      {
        "type": "Feature",
        "properties": {
          "nombre": "UNSA Biomédicas"
        },
        "geometry": {
          "type": "Point",
          "coordinates": [-16.41366, -71.53475]
        }
      },
      {
        "type": "Feature",
        "properties": {
          "nombre": "Sedapar"
        },
        "geometry": {
          "type": "Point",
          "coordinates": [-16.41049, -71.53266]
        }
      },
      {
        "type": "Feature",
        "properties": {
          "nombre": "Colegio de Contadores Públicos"
        },
        "geometry": {
          "type": "Point",
          "coordinates": [-16.40822, -71.52663]
        }
      },
      {
        "type": "Feature",
        "properties": {
          "nombre": "UNSA Ingenierías"
        },
        "geometry": {
          "type": "Point",
          "coordinates": [-16.40628, -71.52281]
        }
      },
      {
        "type": "Feature",
        "properties": {
          "nombre": "UNSA Sociales"
        },
        "geometry": {
          "type": "Point",
          "coordinates": [-16.40534, -71.52128]
        }
      },
      {
        "type": "Feature",
        "properties": {
          "nombre": "Bancos - Banco BCP"
        },
        "geometry": {
          "type": "Point",
          "coordinates": [-16.40293, -71.51794]
        }
      },
      {
        "type": "Feature",
        "properties": {
          "nombre": "Feria El Altiplano"
        },
        "geometry": {
          "type": "Point",
          "coordinates": [-16.40124, -71.5166]
        }
      },
      {
        "type": "Feature",
        "properties": {
          "nombre": "Cuartel Salaverry"
        },
        "geometry": {
          "type": "Point",
          "coordinates": [-16.39838, -71.51593]
        }
      },
      {
        "type": "Feature",
        "properties": {
          "nombre": "Plaza Mayta Cápac"
        },
        "geometry": {
          "type": "Point",
          "coordinates": [-16.39431, -71.52133]
        }
      },
      {
        "type": "Feature",
        "properties": {
          "nombre": "Iglesia Chapi Chico"
        },
        "geometry": {
          "type": "Point",
          "coordinates": [-16.39058, -71.51828]
        }
      },
      {
        "type": "Feature",
        "properties": {
          "nombre": "Posta de Alto Misti Miraflores"
        },
        "geometry": {
          "type": "Point",
          "coordinates": [-16.38286, -71.51177]
        }
      },
      {
        "type": "Feature",
        "properties": {
          "nombre": "Piscina de la Familia Miraflorina"
        },
        "geometry": {
          "type": "Point",
          "coordinates": [-16.38069, -71.50884]
        }
      },
      {
        "type": "Feature",
        "properties": {
          "nombre": "Complejo Deportivo Munakuyky"
        },
        "geometry": {
          "type": "Point",
          "coordinates": [-16.38141, -71.50217]
        }
      },
      {
        "type": "Feature",
        "properties": {
          "nombre": "Salón de usos múltiples Juan XXIII"
        },
        "geometry": {
          "type": "Point",
          "coordinates": [-16.37933, -71.49863]
        }
      },
      {
        "type": "Feature",
        "properties": {
          "nombre": "Complejo Deportivo La Galaxia"
        },
        "geometry": {
          "type": "Point",
          "coordinates": [-16.37856, -71.49356]
        }
      },
      {
        "type": "Feature",
        "properties": {
          "nombre": "Juan XXIII"
        },
        "geometry": {
          "type": "Point",
          "coordinates": [-16.3798, -71.49176]
        }
      }
    ]
  }
  